[
 {
   "id": 1,
   "code": 1,
   "name": "Adrar",
   "ar_name": "أدرار",
   "longitude": 28.0174403,
   "latitude": -0.2642497
 },
 {
   "id": 2,
   "code": 2,
   "name": "Chlef",
   "ar_name": "الشلف",
   "longitude": 36.1579664,
   "latitude": 1.3372823
 },
 {
   "id": 3,
   "code": 3,
   "name": "Laghouat",
   "ar_name": "الأغواط",
   "longitude": 33.8078341,
   "latitude": 2.8628294
 },
 {
   "id": 4,
   "code": 4,
   "name": "Oum El Bouaghi",
   "ar_name": "أم البواقي",
   "longitude": 35.8688789,
   "latitude": 7.1108266
 },
 {
   "id": 5,
   "code": 5,
   "name": "Batna",
   "ar_name": "باتنة",
   "longitude": 35.5634192,
   "latitude": 6.1889996
 },
 {
   "id": 6,
   "code": 6,
   "name": "Béjaïa",
   "ar_name": "بجاية",
   "longitude": 36.7515258,
   "latitude": 5.0556837
 },
 {
   "id": 7,
   "code": 7,
   "name": "Biskra",
   "ar_name": "بسكرة",
   "longitude": 34.8449437,
   "latitude": 5.7248567
 },
 {
   "id": 8,
   "code": 8,
   "name": "Bechar",
   "ar_name": "بشار",
   "longitude": 31.6238098,
   "latitude": -2.2162443
 },
 {
   "id": 9,
   "code": 9,
   "name": "Blida",
   "ar_name": "البليدة",
   "longitude": 36.4735715,
   "latitude": 2.8323153
 },
 {
   "id": 10,
   "code": 10,
   "name": "Bouira",
   "ar_name": "البويرة",
   "longitude": 36.3691846,
   "latitude": 3.9006194
 },
 {
   "id": 11,
   "code": 11,
   "name": "Tamanrasset",
   "ar_name": "تمنراست",
   "longitude": 22.7902972,
   "latitude": 5.5193268
 },
 {
   "id": 12,
   "code": 12,
   "name": "Tbessa",
   "ar_name": "تبسة",
   "longitude": 35.1290691,
   "latitude": 7.9592863
 },
 {
   "id": 13,
   "code": 13,
   "name": "Tlemcen",
   "ar_name": "تلمسان",
   "longitude": 34.8828864,
   "latitude": -1.3166815
 },
 {
   "id": 14,
   "code": 14,
   "name": "Tiaret",
   "ar_name": "تيارت",
   "longitude": 35.3708689,
   "latitude": 1.3217852
 },
 {
   "id": 15,
   "code": 15,
   "name": "Tizi Ouzou",
   "ar_name": "تيزي وزو",
   "longitude": 36.706911,
   "latitude": 4.2333355
 },
 {
   "id": 16,
   "code": 16,
   "name": "Alger",
   "ar_name": "الجزائر",
   "longitude": 36.753768,
   "latitude": 3.0587561
 },
 {
   "id": 17,
   "code": 17,
   "name": "Djelfa",
   "ar_name": "الجلفة",
   "longitude": 34.6703956,
   "latitude": 3.2503761
 },
 {
   "id": 18,
   "code": 18,
   "name": "Jijel",
   "ar_name": "جيجل",
   "longitude": 36.8210144,
   "latitude": 5.7634126
 },
 {
   "id": 19,
   "code": 19,
   "name": "Setif",
   "ar_name": "سطيف",
   "longitude": 36.1897593,
   "latitude": 5.4107984
 },
 {
   "id": 20,
   "code": 20,
   "name": "Saefda",
   "ar_name": "سعيدة",
   "longitude": 36.7505029,
   "latitude": 3.4695305
 },
 {
   "id": 21,
   "code": 21,
   "name": "Skikda",
   "ar_name": "سكيكدة",
   "longitude": 36.8662658,
   "latitude": 6.9062556
 },
 {
   "id": 22,
   "code": 22,
   "name": "Sidi Bel Abbes",
   "ar_name": "سيدي بلعباس",
   "longitude": 35.2105876,
   "latitude": -0.629983
 },
 {
   "id": 23,
   "code": 23,
   "name": "Annaba",
   "ar_name": "عنابة",
   "longitude": 36.9142081,
   "latitude": 7.7426673
 },
 {
   "id": 24,
   "code": 24,
   "name": "Guelma",
   "ar_name": "قالمة",
   "longitude": 36.4627444,
   "latitude": 7.4330833
 },
 {
   "id": 25,
   "code": 25,
   "name": "Constantine",
   "ar_name": "قسنطينة",
   "longitude": 36.3570052,
   "latitude": 6.6390282
 },
 {
   "id": 26,
   "code": 26,
   "name": "Medea",
   "ar_name": "المدية",
   "longitude": 36.2637078,
   "latitude": 2.7587857
 },
 {
   "id": 27,
   "code": 27,
   "name": "Mostaganem",
   "ar_name": "مستغانم",
   "longitude": 35.9311454,
   "latitude": 0.0909414
 },
 {
   "id": 28,
   "code": 28,
   "name": "M'Sila",
   "ar_name": "المسيلة",
   "longitude": 35.7186646,
   "latitude": 4.5233423
 },
 {
   "id": 29,
   "code": 29,
   "name": "Mascara",
   "ar_name": "معسكر",
   "longitude": 35.4020988,
   "latitude": 0.1400257
 },
 {
   "id": 30,
   "code": 30,
   "name": "Ouargla",
   "ar_name": "ورقلة",
   "longitude": 31.9527411,
   "latitude": 5.3335348
 },
 {
   "id": 31,
   "code": 31,
   "name": "Oran",
   "ar_name": "وهران",
   "longitude": 35.6987388,
   "latitude": -0.6349319
 },
 {
   "id": 32,
   "code": 32,
   "name": "El Bayadh",
   "ar_name": "البيض",
   "longitude": 33.6854149,
   "latitude": 1.0303543
 },
 {
   "id": 33,
   "code": 33,
   "name": "Illizi",
   "ar_name": "إليزي",
   "longitude": 26.4775863,
   "latitude": 8.4776326
 },
 {
   "id": 34,
   "code": 34,
   "name": "Bordj Bou Arreridj",
   "ar_name": "برج بوعريريج",
   "longitude": 36.0739925,
   "latitude": 4.7630271
 },
 {
   "id": 35,
   "code": 35,
   "name": "Boumerdes",
   "ar_name": "بومرداس",
   "longitude": 36.7510697,
   "latitude": 3.4788905
 },
 {
   "id": 36,
   "code": 36,
   "name": "El Tarf",
   "ar_name": "الطارف",
   "longitude": 36.7576678,
   "latitude": 8.3076343
 },
 {
   "id": 37,
   "code": 37,
   "name": "Tindouf",
   "ar_name": "تندوف",
   "longitude": 27.6719159,
   "latitude": -8.1398003
 },
 {
   "id": 38,
   "code": 38,
   "name": "Tissemsilt",
   "ar_name": "تيسمسيلت",
   "longitude": 35.8174139,
   "latitude": 1.5983959
 },
 {
   "id": 39,
   "code": 39,
   "name": "El Oued",
   "ar_name": "الوادي",
   "longitude": 33.367811,
   "latitude": 6.8516511
 },
 {
   "id": 40,
   "code": 40,
   "name": "Khenchela",
   "ar_name": "خنشلة",
   "longitude": 35.4269404,
   "latitude": 7.1460155
 },
 {
   "id": 41,
   "code": 41,
   "name": "Souk Ahras",
   "ar_name": "سوق أهراس",
   "longitude": 36.2801062,
   "latitude": 7.9384033
 },
 {
   "id": 42,
   "code": 42,
   "name": "Tipaza",
   "ar_name": "تيبازة",
   "longitude": 36.5906719,
   "latitude": 2.4433723
 },
 {
   "id": 43,
   "code": 43,
   "name": "Mila",
   "ar_name": "ميلة",
   "longitude": 36.4519049,
   "latitude": 6.2584338
 },
 {
   "id": 44,
   "code": 44,
   "name": "Ain Defla",
   "ar_name": "عين الدفلى",
   "longitude": 36.1585027,
   "latitude": 2.0665197
 },
 {
   "id": 45,
   "code": 45,
   "name": "Naama",
   "ar_name": "النعامة",
   "longitude": 33.4350615,
   "latitude": -0.9056623
 },
 {
   "id": 46,
   "code": 46,
   "name": "Ain Temouchent",
   "ar_name": "عين تموشنت",
   "longitude": 35.2974176,
   "latitude": -1.135302
 },
 {
   "id": 47,
   "code": 47,
   "name": "Ghardaefa",
   "ar_name": "غرداية",
   "longitude": 32.4943741,
   "latitude": 3.64446
 },
 {
   "id": 48,
   "code": 48,
   "name": "Relizane",
   "ar_name": "غليزان",
   "longitude": 35.7383405,
   "latitude": 0.7532809
 },
 {
   "id": 49,
   "code": 49,
   "name": "El M'ghair",
   "ar_name": "المغير",
   "longitude": 33.950285,
   "latitude": 5.9244238
 },
 {
   "id": 50,
   "code": 50,
   "name": "El Menia",
   "ar_name": "المنيعة",
   "longitude": 30.5833161,
   "latitude": 2.8836701
 },
 {
   "id": 51,
   "code": 51,
   "name": "Ouled Djellal",
   "ar_name": "اولاد جلال",
   "longitude": 34.4294289,
   "latitude": 5.0681159
 },
 {
   "id": 52,
   "code": 52,
   "name": "Bordj Baji Mokhtar",
   "ar_name": "برج باجي مختار",
   "longitude": 21.32551,
   "latitude": 0.9524803
 },
 {
   "id": 53,
   "code": 53,
   "name": "Béni Abbès",
   "ar_name": "باني عباس",
   "longitude": 30.1312217,
   "latitude": -2.1662258
 },
 {
   "id": 54,
   "code": 54,
   "name": "Timimoun",
   "ar_name": "تيميمون",
   "longitude": 29.2616911,
   "latitude": 0.2415964
 },
 {
   "id": 55,
   "code": 55,
   "name": "Touggourt",
   "ar_name": "توقورت",
   "longitude": 33.1049642,
   "latitude": 6.0662834
 },
 {
   "id": 56,
   "code": 56,
   "name": "Djanet",
   "ar_name": "جانات",
   "longitude": 24.554151,
   "latitude": 9.485429
 },
 {
   "id": 57,
   "code": 57,
   "name": "In Salah",
   "ar_name": "عين صالح",
   "longitude": 27.2026311,
   "latitude": 2.4878487
 },
 {
   "id": 58,
   "code": 58,
   "name": "In Guezzam",
   "ar_name": "عين قزام",
   "longitude": 19.5632255,
   "latitude": 5.7717952
 }
]